log_time_ns,_full_text,_type,header._full_text,header._type,header.frame_id,header.stamp._full_text,header.stamp._type,header.stamp.nanosec,header.stamp.sec,steering,throttle
1727950643943712971,"# lar_msgs/CarControlStamped
std_msgs/Header header
float32 steering
float32 throttle",lar_msgs/CarControlStamped,"# std_msgs/Header
builtin_interfaces/Time stamp
string frame_id",std_msgs/Header,,"# builtin_interfaces/Time
int32 sec
uint32 nanosec",builtin_interfaces/Time,943604873,1727950643,1.0,0.08888889104127884
1727950644022850262,"# lar_msgs/CarControlStamped
std_msgs/Header header
float32 steering
float32 throttle",lar_msgs/CarControlStamped,"# std_msgs/Header
builtin_interfaces/Time stamp
string frame_id",std_msgs/Header,,"# builtin_interfaces/Time
int32 sec
uint32 nanosec",builtin_interfaces/Time,22688993,1727950644,0.8724058866500854,0.08888889104127884
1727950644099408164,"# lar_msgs/CarControlStamped
std_msgs/Header header
float32 steering
float32 throttle",lar_msgs/CarControlStamped,"# std_msgs/Header
builtin_interfaces/Time stamp
string frame_id",std_msgs/Header,,"# builtin_interfaces/Time
int32 sec
uint32 nanosec",builtin_interfaces/Time,99235132,1727950644,0.7310539484024048,0.08888889104127884
1727950644176289396,"# lar_msgs/CarControlStamped
std_msgs/Header header
float32 steering
float32 throttle",lar_msgs/CarControlStamped,"# std_msgs/Header
builtin_interfaces/Time stamp
string frame_id",std_msgs/Header,,"# builtin_interfaces/Time
int32 sec
uint32 nanosec",builtin_interfaces/Time,176168584,1727950644,0.4389292001724243,0.08888889104127884
1727950644250418998,"# lar_msgs/CarControlStamped
std_msgs/Header header
float32 steering
float32 throttle",lar_msgs/CarControlStamped,"# std_msgs/Header
builtin_interfaces/Time stamp
string frame_id",std_msgs/Header,,"# builtin_interfaces/Time
int32 sec
uint32 nanosec",builtin_interfaces/Time,250304268,1727950644,0.26408588886260986,0.08888889104127884
1727950644325558618,"# lar_msgs/CarControlStamped
std_msgs/Header header
float32 steering
float32 throttle",lar_msgs/CarControlStamped,"# std_msgs/Header
builtin_interfaces/Time stamp
string frame_id",std_msgs/Header,,"# builtin_interfaces/Time
int32 sec
uint32 nanosec",builtin_interfaces/Time,325393231,1727950644,0.12468519061803818,0.08888889104127884
1727950644402900644,"# lar_msgs/CarControlStamped
std_msgs/Header header
float32 steering
float32 throttle",lar_msgs/CarControlStamped,"# std_msgs/Header
builtin_interfaces/Time stamp
string frame_id",std_msgs/Header,,"# builtin_interfaces/Time
int32 sec
uint32 nanosec",builtin_interfaces/Time,402660764,1727950644,0.021106872707605362,0.08888889104127884
1727950644477578759,"# lar_msgs/CarControlStamped
std_msgs/Header header
float32 steering
float32 throttle",lar_msgs/CarControlStamped,"# std_msgs/Header
builtin_interfaces/Time stamp
string frame_id",std_msgs/Header,,"# builtin_interfaces/Time
int32 sec
uint32 nanosec",builtin_interfaces/Time,477433771,1727950644,-0.021106872707605362,0.08888889104127884
1727950644559400751,"# lar_msgs/CarControlStamped
std_msgs/Header header
float32 steering
float32 throttle",lar_msgs/CarControlStamped,"# std_msgs/Header
builtin_interfaces/Time stamp
string frame_id",std_msgs/Header,,"# builtin_interfaces/Time
int32 sec
uint32 nanosec",builtin_interfaces/Time,559228060,1727950644,-0.1612085998058319,0.04444444552063942
1727950644639415626,"# lar_msgs/CarControlStamped
std_msgs/Header header
float32 steering
float32 throttle",lar_msgs/CarControlStamped,"# std_msgs/Header
builtin_interfaces/Time stamp
string frame_id",std_msgs/Header,,"# builtin_interfaces/Time
int32 sec
uint32 nanosec",builtin_interfaces/Time,639249217,1727950644,0.5364843010902405,8.881784197001252e-16
1727950644720341570,"# lar_msgs/CarControlStamped
std_msgs/Header header
float32 steering
float32 throttle",lar_msgs/CarControlStamped,"# std_msgs/Header
builtin_interfaces/Time stamp
string frame_id",std_msgs/Header,,"# builtin_interfaces/Time
int32 sec
uint32 nanosec",builtin_interfaces/Time,720174880,1727950644,0.7310539484024048,8.881784197001252e-16
1727950644801930605,"# lar_msgs/CarControlStamped
std_msgs/Header header
float32 steering
float32 throttle",lar_msgs/CarControlStamped,"# std_msgs/Header
builtin_interfaces/Time stamp
string frame_id",std_msgs/Header,,"# builtin_interfaces/Time
int32 sec
uint32 nanosec",builtin_interfaces/Time,801824391,1727950644,0.8724058866500854,0.02222222276031971
1727950644881920512,"# lar_msgs/CarControlStamped
std_msgs/Header header
float32 steering
float32 throttle",lar_msgs/CarControlStamped,"# std_msgs/Header
builtin_interfaces/Time stamp
string frame_id",std_msgs/Header,,"# builtin_interfaces/Time
int32 sec
uint32 nanosec",builtin_interfaces/Time,881801835,1727950644,1.0,0.04444444552063942
1727950644959031606,"# lar_msgs/CarControlStamped
std_msgs/Header header
float32 steering
float32 throttle",lar_msgs/CarControlStamped,"# std_msgs/Header
builtin_interfaces/Time stamp
string frame_id",std_msgs/Header,,"# builtin_interfaces/Time
int32 sec
uint32 nanosec",builtin_interfaces/Time,958932986,1727950644,1.0,0.02222222276031971
1727950645032777161,"# lar_msgs/CarControlStamped
std_msgs/Header header
float32 steering
float32 throttle",lar_msgs/CarControlStamped,"# std_msgs/Header
builtin_interfaces/Time stamp
string frame_id",std_msgs/Header,,"# builtin_interfaces/Time
int32 sec
uint32 nanosec",builtin_interfaces/Time,32635689,1727950645,-0.38060346245765686,0.08888889104127884
1727950645109610120,"# lar_msgs/CarControlStamped
std_msgs/Header header
float32 steering
float32 throttle",lar_msgs/CarControlStamped,"# std_msgs/Header
builtin_interfaces/Time stamp
string frame_id",std_msgs/Header,,"# builtin_interfaces/Time
int32 sec
uint32 nanosec",builtin_interfaces/Time,109441927,1727950645,-0.7310539484024048,0.0
1727950645187306045,"# lar_msgs/CarControlStamped
std_msgs/Header header
float32 steering
float32 throttle",lar_msgs/CarControlStamped,"# std_msgs/Header
builtin_interfaces/Time stamp
string frame_id",std_msgs/Header,,"# builtin_interfaces/Time
int32 sec
uint32 nanosec",builtin_interfaces/Time,187198639,1727950645,-0.5668846964836121,8.881784197001252e-16
1727950645269470674,"# lar_msgs/CarControlStamped
std_msgs/Header header
float32 steering
float32 throttle",lar_msgs/CarControlStamped,"# std_msgs/Header
builtin_interfaces/Time stamp
string frame_id",std_msgs/Header,,"# builtin_interfaces/Time
int32 sec
uint32 nanosec",builtin_interfaces/Time,269349672,1727950645,1.0,0.0
1727950645352044860,"# lar_msgs/CarControlStamped
std_msgs/Header header
float32 steering
float32 throttle",lar_msgs/CarControlStamped,"# std_msgs/Header
builtin_interfaces/Time stamp
string frame_id",std_msgs/Header,,"# builtin_interfaces/Time
int32 sec
uint32 nanosec",builtin_interfaces/Time,351927404,1727950645,0.26408588886260986,0.0
1727950645428036023,"# lar_msgs/CarControlStamped
std_msgs/Header header
float32 steering
float32 throttle",lar_msgs/CarControlStamped,"# std_msgs/Header
builtin_interfaces/Time stamp
string frame_id",std_msgs/Header,,"# builtin_interfaces/Time
int32 sec
uint32 nanosec",builtin_interfaces/Time,427867771,1727950645,0.021106872707605362,0.06666667014360428
1727950645502882461,"# lar_msgs/CarControlStamped
std_msgs/Header header
float32 steering
float32 throttle",lar_msgs/CarControlStamped,"# std_msgs/Header
builtin_interfaces/Time stamp
string frame_id",std_msgs/Header,,"# builtin_interfaces/Time
int32 sec
uint32 nanosec",builtin_interfaces/Time,502762210,1727950645,-0.1612085998058319,0.08888889104127884
1727950645578696735,"# lar_msgs/CarControlStamped
std_msgs/Header header
float32 steering
float32 throttle",lar_msgs/CarControlStamped,"# std_msgs/Header
builtin_interfaces/Time stamp
string frame_id",std_msgs/Header,,"# builtin_interfaces/Time
int32 sec
uint32 nanosec",builtin_interfaces/Time,578580071,1727950645,0.12468519061803818,0.08888889104127884
1727950645654822097,"# lar_msgs/CarControlStamped
std_msgs/Header header
float32 steering
float32 throttle",lar_msgs/CarControlStamped,"# std_msgs/Header
builtin_interfaces/Time stamp
string frame_id",std_msgs/Header,,"# builtin_interfaces/Time
int32 sec
uint32 nanosec",builtin_interfaces/Time,654705443,1727950645,0.5364843010902405,0.08888889104127884
1727950645730514307,"# lar_msgs/CarControlStamped
std_msgs/Header header
float32 steering
float32 throttle",lar_msgs/CarControlStamped,"# std_msgs/Header
builtin_interfaces/Time stamp
string frame_id",std_msgs/Header,,"# builtin_interfaces/Time
int32 sec
uint32 nanosec",builtin_interfaces/Time,730374378,1727950645,0.8121727108955383,0.08888889104127884
1727950645806611404,"# lar_msgs/CarControlStamped
std_msgs/Header header
float32 steering
float32 throttle",lar_msgs/CarControlStamped,"# std_msgs/Header
builtin_interfaces/Time stamp
string frame_id",std_msgs/Header,,"# builtin_interfaces/Time
int32 sec
uint32 nanosec",builtin_interfaces/Time,806125992,1727950645,1.0,0.08888889104127884
1727950645887853424,"# lar_msgs/CarControlStamped
std_msgs/Header header
float32 steering
float32 throttle",lar_msgs/CarControlStamped,"# std_msgs/Header
builtin_interfaces/Time stamp
string frame_id",std_msgs/Header,,"# builtin_interfaces/Time
int32 sec
uint32 nanosec",builtin_interfaces/Time,887729476,1727950645,1.0,0.08888889104127884
1727950645962124046,"# lar_msgs/CarControlStamped
std_msgs/Header header
float32 steering
float32 throttle",lar_msgs/CarControlStamped,"# std_msgs/Header
builtin_interfaces/Time stamp
string frame_id",std_msgs/Header,,"# builtin_interfaces/Time
int32 sec
uint32 nanosec",builtin_interfaces/Time,961981041,1727950645,1.0,0.08888889104127884
1727950646033377989,"# lar_msgs/CarControlStamped
std_msgs/Header header
float32 steering
float32 throttle",lar_msgs/CarControlStamped,"# std_msgs/Header
builtin_interfaces/Time stamp
string frame_id",std_msgs/Header,,"# builtin_interfaces/Time
int32 sec
uint32 nanosec",builtin_interfaces/Time,33196341,1727950646,1.0,0.08888889104127884
1727950646103352548,"# lar_msgs/CarControlStamped
std_msgs/Header header
float32 steering
float32 throttle",lar_msgs/CarControlStamped,"# std_msgs/Header
builtin_interfaces/Time stamp
string frame_id",std_msgs/Header,,"# builtin_interfaces/Time
int32 sec
uint32 nanosec",builtin_interfaces/Time,103186920,1727950646,1.0,0.08888889104127884
1727950646173479840,"# lar_msgs/CarControlStamped
std_msgs/Header header
float32 steering
float32 throttle",lar_msgs/CarControlStamped,"# std_msgs/Header
builtin_interfaces/Time stamp
string frame_id",std_msgs/Header,,"# builtin_interfaces/Time
int32 sec
uint32 nanosec",builtin_interfaces/Time,173347075,1727950646,1.0,0.08888889104127884
1727950646240765179,"# lar_msgs/CarControlStamped
std_msgs/Header header
float32 steering
float32 throttle",lar_msgs/CarControlStamped,"# std_msgs/Header
builtin_interfaces/Time stamp
string frame_id",std_msgs/Header,,"# builtin_interfaces/Time
int32 sec
uint32 nanosec",builtin_interfaces/Time,240642082,1727950646,0.8724058866500854,0.08888889104127884
1727950646311366430,"# lar_msgs/CarControlStamped
std_msgs/Header header
float32 steering
float32 throttle",lar_msgs/CarControlStamped,"# std_msgs/Header
builtin_interfaces/Time stamp
string frame_id",std_msgs/Header,,"# builtin_interfaces/Time
int32 sec
uint32 nanosec",builtin_interfaces/Time,311249606,1727950646,0.5668846964836121,0.08888889104127884
1727950646382397937,"# lar_msgs/CarControlStamped
std_msgs/Header header
float32 steering
float32 throttle",lar_msgs/CarControlStamped,"# std_msgs/Header
builtin_interfaces/Time stamp
string frame_id",std_msgs/Header,,"# builtin_interfaces/Time
int32 sec
uint32 nanosec",builtin_interfaces/Time,382279971,1727950646,0.38060346245765686,0.08888889104127884
1727950646455463256,"# lar_msgs/CarControlStamped
std_msgs/Header header
float32 steering
float32 throttle",lar_msgs/CarControlStamped,"# std_msgs/Header
builtin_interfaces/Time stamp
string frame_id",std_msgs/Header,,"# builtin_interfaces/Time
int32 sec
uint32 nanosec",builtin_interfaces/Time,455295705,1727950646,0.19202718138694763,0.08888889104127884
1727950646526336068,"# lar_msgs/CarControlStamped
std_msgs/Header header
float32 steering
float32 throttle",lar_msgs/CarControlStamped,"# std_msgs/Header
builtin_interfaces/Time stamp
string frame_id",std_msgs/Header,,"# builtin_interfaces/Time
int32 sec
uint32 nanosec",builtin_interfaces/Time,526226168,1727950646,0.0862141028046608,0.08888889104127884
1727950646603540029,"# lar_msgs/CarControlStamped
std_msgs/Header header
float32 steering
float32 throttle",lar_msgs/CarControlStamped,"# std_msgs/Header
builtin_interfaces/Time stamp
string frame_id",std_msgs/Header,,"# builtin_interfaces/Time
int32 sec
uint32 nanosec",builtin_interfaces/Time,603411633,1727950646,-0.021106872707605362,0.1111111119389534
1727950646680415770,"# lar_msgs/CarControlStamped
std_msgs/Header header
float32 steering
float32 throttle",lar_msgs/CarControlStamped,"# std_msgs/Header
builtin_interfaces/Time stamp
string frame_id",std_msgs/Header,,"# builtin_interfaces/Time
int32 sec
uint32 nanosec",builtin_interfaces/Time,680249391,1727950646,-0.0862141028046608,0.08888889104127884
1727950646752896397,"# lar_msgs/CarControlStamped
std_msgs/Header header
float32 steering
float32 throttle",lar_msgs/CarControlStamped,"# std_msgs/Header
builtin_interfaces/Time stamp
string frame_id",std_msgs/Header,,"# builtin_interfaces/Time
int32 sec
uint32 nanosec",builtin_interfaces/Time,752786517,1727950646,-0.0862141028046608,0.1111111119389534
1727950646824556260,"# lar_msgs/CarControlStamped
std_msgs/Header header
float32 steering
float32 throttle",lar_msgs/CarControlStamped,"# std_msgs/Header
builtin_interfaces/Time stamp
string frame_id",std_msgs/Header,,"# builtin_interfaces/Time
int32 sec
uint32 nanosec",builtin_interfaces/Time,824445407,1727950646,-0.0862141028046608,0.1111111119389534
1727950646894176679,"# lar_msgs/CarControlStamped
std_msgs/Header header
float32 steering
float32 throttle",lar_msgs/CarControlStamped,"# std_msgs/Header
builtin_interfaces/Time stamp
string frame_id",std_msgs/Header,,"# builtin_interfaces/Time
int32 sec
uint32 nanosec",builtin_interfaces/Time,893949944,1727950646,-0.021106872707605362,0.1111111119389534
1727950646963125940,"# lar_msgs/CarControlStamped
std_msgs/Header header
float32 steering
float32 throttle",lar_msgs/CarControlStamped,"# std_msgs/Header
builtin_interfaces/Time stamp
string frame_id",std_msgs/Header,,"# builtin_interfaces/Time
int32 sec
uint32 nanosec",builtin_interfaces/Time,962952548,1727950646,-0.021106872707605362,0.1111111119389534
1727950647031607835,"# lar_msgs/CarControlStamped
std_msgs/Header header
float32 steering
float32 throttle",lar_msgs/CarControlStamped,"# std_msgs/Header
builtin_interfaces/Time stamp
string frame_id",std_msgs/Header,,"# builtin_interfaces/Time
int32 sec
uint32 nanosec",builtin_interfaces/Time,31499647,1727950647,-0.021106872707605362,0.1111111119389534
1727950647098830513,"# lar_msgs/CarControlStamped
std_msgs/Header header
float32 steering
float32 throttle",lar_msgs/CarControlStamped,"# std_msgs/Header
builtin_interfaces/Time stamp
string frame_id",std_msgs/Header,,"# builtin_interfaces/Time
int32 sec
uint32 nanosec",builtin_interfaces/Time,98723528,1727950647,-0.021106872707605362,0.08888889104127884
1727950647165737495,"# lar_msgs/CarControlStamped
std_msgs/Header header
float32 steering
float32 throttle",lar_msgs/CarControlStamped,"# std_msgs/Header
builtin_interfaces/Time stamp
string frame_id",std_msgs/Header,,"# builtin_interfaces/Time
int32 sec
uint32 nanosec",builtin_interfaces/Time,165565686,1727950647,0.0,0.1111111119389534
1727950647233990410,"# lar_msgs/CarControlStamped
std_msgs/Header header
float32 steering
float32 throttle",lar_msgs/CarControlStamped,"# std_msgs/Header
builtin_interfaces/Time stamp
string frame_id",std_msgs/Header,,"# builtin_interfaces/Time
int32 sec
uint32 nanosec",builtin_interfaces/Time,233816356,1727950647,0.0,0.1111111119389534
1727950647299711257,"# lar_msgs/CarControlStamped
std_msgs/Header header
float32 steering
float32 throttle",lar_msgs/CarControlStamped,"# std_msgs/Header
builtin_interfaces/Time stamp
string frame_id",std_msgs/Header,,"# builtin_interfaces/Time
int32 sec
uint32 nanosec",builtin_interfaces/Time,299608730,1727950647,0.0,0.08888889104127884
1727950647367642384,"# lar_msgs/CarControlStamped
std_msgs/Header header
float32 steering
float32 throttle",lar_msgs/CarControlStamped,"# std_msgs/Header
builtin_interfaces/Time stamp
string frame_id",std_msgs/Header,,"# builtin_interfaces/Time
int32 sec
uint32 nanosec",builtin_interfaces/Time,367515631,1727950647,0.021106872707605362,0.08888889104127884
1727950647433242178,"# lar_msgs/CarControlStamped
std_msgs/Header header
float32 steering
float32 throttle",lar_msgs/CarControlStamped,"# std_msgs/Header
builtin_interfaces/Time stamp
string frame_id",std_msgs/Header,,"# builtin_interfaces/Time
int32 sec
uint32 nanosec",builtin_interfaces/Time,433085197,1727950647,0.0862141028046608,0.1111111119389534
1727950647499887158,"# lar_msgs/CarControlStamped
std_msgs/Header header
float32 steering
float32 throttle",lar_msgs/CarControlStamped,"# std_msgs/Header
builtin_interfaces/Time stamp
string frame_id",std_msgs/Header,,"# builtin_interfaces/Time
int32 sec
uint32 nanosec",builtin_interfaces/Time,499762589,1727950647,0.12468519061803818,0.1111111119389534
1727950647566374305,"# lar_msgs/CarControlStamped
std_msgs/Header header
float32 steering
float32 throttle",lar_msgs/CarControlStamped,"# std_msgs/Header
builtin_interfaces/Time stamp
string frame_id",std_msgs/Header,,"# builtin_interfaces/Time
int32 sec
uint32 nanosec",builtin_interfaces/Time,566107242,1727950647,0.19202718138694763,0.1111111119389534
1727950647632619056,"# lar_msgs/CarControlStamped
std_msgs/Header header
float32 steering
float32 throttle",lar_msgs/CarControlStamped,"# std_msgs/Header
builtin_interfaces/Time stamp
string frame_id",std_msgs/Header,,"# builtin_interfaces/Time
int32 sec
uint32 nanosec",builtin_interfaces/Time,632448198,1727950647,0.38060346245765686,0.1111111119389534
1727950647703069738,"# lar_msgs/CarControlStamped
std_msgs/Header header
float32 steering
float32 throttle",lar_msgs/CarControlStamped,"# std_msgs/Header
builtin_interfaces/Time stamp
string frame_id",std_msgs/Header,,"# builtin_interfaces/Time
int32 sec
uint32 nanosec",builtin_interfaces/Time,702943075,1727950647,0.5364843010902405,0.1111111119389534
1727950647769126078,"# lar_msgs/CarControlStamped
std_msgs/Header header
float32 steering
float32 throttle",lar_msgs/CarControlStamped,"# std_msgs/Header
builtin_interfaces/Time stamp
string frame_id",std_msgs/Header,,"# builtin_interfaces/Time
int32 sec
uint32 nanosec",builtin_interfaces/Time,769008653,1727950647,0.5668846964836121,0.06666667014360428
1727950647837181714,"# lar_msgs/CarControlStamped
std_msgs/Header header
float32 steering
float32 throttle",lar_msgs/CarControlStamped,"# std_msgs/Header
builtin_interfaces/Time stamp
string frame_id",std_msgs/Header,,"# builtin_interfaces/Time
int32 sec
uint32 nanosec",builtin_interfaces/Time,837064319,1727950647,0.7310539484024048,0.1111111119389534
1727950647912495217,"# lar_msgs/CarControlStamped
std_msgs/Header header
float32 steering
float32 throttle",lar_msgs/CarControlStamped,"# std_msgs/Header
builtin_interfaces/Time stamp
string frame_id",std_msgs/Header,,"# builtin_interfaces/Time
int32 sec
uint32 nanosec",builtin_interfaces/Time,912379856,1727950647,0.7310539484024048,0.1111111119389534
1727950647986011692,"# lar_msgs/CarControlStamped
std_msgs/Header header
float32 steering
float32 throttle",lar_msgs/CarControlStamped,"# std_msgs/Header
builtin_interfaces/Time stamp
string frame_id",std_msgs/Header,,"# builtin_interfaces/Time
int32 sec
uint32 nanosec",builtin_interfaces/Time,985842648,1727950647,0.7310539484024048,0.1111111119389534
1727950648062727004,"# lar_msgs/CarControlStamped
std_msgs/Header header
float32 steering
float32 throttle",lar_msgs/CarControlStamped,"# std_msgs/Header
builtin_interfaces/Time stamp
string frame_id",std_msgs/Header,,"# builtin_interfaces/Time
int32 sec
uint32 nanosec",builtin_interfaces/Time,62590122,1727950648,0.7310539484024048,0.1111111119389534
1727950648135626475,"# lar_msgs/CarControlStamped
std_msgs/Header header
float32 steering
float32 throttle",lar_msgs/CarControlStamped,"# std_msgs/Header
builtin_interfaces/Time stamp
string frame_id",std_msgs/Header,,"# builtin_interfaces/Time
int32 sec
uint32 nanosec",builtin_interfaces/Time,135522505,1727950648,0.7310539484024048,0.1111111119389534
1727950648206540336,"# lar_msgs/CarControlStamped
std_msgs/Header header
float32 steering
float32 throttle",lar_msgs/CarControlStamped,"# std_msgs/Header
builtin_interfaces/Time stamp
string frame_id",std_msgs/Header,,"# builtin_interfaces/Time
int32 sec
uint32 nanosec",builtin_interfaces/Time,206434162,1727950648,0.5668846964836121,0.08888889104127884
1727950648276393070,"# lar_msgs/CarControlStamped
std_msgs/Header header
float32 steering
float32 throttle",lar_msgs/CarControlStamped,"# std_msgs/Header
builtin_interfaces/Time stamp
string frame_id",std_msgs/Header,,"# builtin_interfaces/Time
int32 sec
uint32 nanosec",builtin_interfaces/Time,276248583,1727950648,0.5668846964836121,0.08888889104127884
1727950648349674273,"# lar_msgs/CarControlStamped
std_msgs/Header header
float32 steering
float32 throttle",lar_msgs/CarControlStamped,"# std_msgs/Header
builtin_interfaces/Time stamp
string frame_id",std_msgs/Header,,"# builtin_interfaces/Time
int32 sec
uint32 nanosec",builtin_interfaces/Time,349578008,1727950648,0.43270382285118103,0.08888889104127884
1727950648420249974,"# lar_msgs/CarControlStamped
std_msgs/Header header
float32 steering
float32 throttle",lar_msgs/CarControlStamped,"# std_msgs/Header
builtin_interfaces/Time stamp
string frame_id",std_msgs/Header,,"# builtin_interfaces/Time
int32 sec
uint32 nanosec",builtin_interfaces/Time,420154631,1727950648,0.29140761494636536,0.08888889104127884
1727950648491619679,"# lar_msgs/CarControlStamped
std_msgs/Header header
float32 steering
float32 throttle",lar_msgs/CarControlStamped,"# std_msgs/Header
builtin_interfaces/Time stamp
string frame_id",std_msgs/Header,,"# builtin_interfaces/Time
int32 sec
uint32 nanosec",builtin_interfaces/Time,491498236,1727950648,0.19202718138694763,0.08888889104127884
1727950648565099954,"# lar_msgs/CarControlStamped
std_msgs/Header header
float32 steering
float32 throttle",lar_msgs/CarControlStamped,"# std_msgs/Header
builtin_interfaces/Time stamp
string frame_id",std_msgs/Header,,"# builtin_interfaces/Time
int32 sec
uint32 nanosec",builtin_interfaces/Time,564924327,1727950648,0.12468519061803818,0.08888889104127884
1727950648636594829,"# lar_msgs/CarControlStamped
std_msgs/Header header
float32 steering
float32 throttle",lar_msgs/CarControlStamped,"# std_msgs/Header
builtin_interfaces/Time stamp
string frame_id",std_msgs/Header,,"# builtin_interfaces/Time
int32 sec
uint32 nanosec",builtin_interfaces/Time,636476021,1727950648,0.0862141028046608,0.08888889104127884
1727950648707731758,"# lar_msgs/CarControlStamped
std_msgs/Header header
float32 steering
float32 throttle",lar_msgs/CarControlStamped,"# std_msgs/Header
builtin_interfaces/Time stamp
string frame_id",std_msgs/Header,,"# builtin_interfaces/Time
int32 sec
uint32 nanosec",builtin_interfaces/Time,707617659,1727950648,0.021106872707605362,0.08888889104127884
1727950648778244669,"# lar_msgs/CarControlStamped
std_msgs/Header header
float32 steering
float32 throttle",lar_msgs/CarControlStamped,"# std_msgs/Header
builtin_interfaces/Time stamp
string frame_id",std_msgs/Header,,"# builtin_interfaces/Time
int32 sec
uint32 nanosec",builtin_interfaces/Time,778093870,1727950648,0.0,0.08888889104127884
1727950648883601810,"# lar_msgs/CarControlStamped
std_msgs/Header header
float32 steering
float32 throttle",lar_msgs/CarControlStamped,"# std_msgs/Header
builtin_interfaces/Time stamp
string frame_id",std_msgs/Header,,"# builtin_interfaces/Time
int32 sec
uint32 nanosec",builtin_interfaces/Time,883427455,1727950648,0.0,0.1111111119389534
1727950648954877825,"# lar_msgs/CarControlStamped
std_msgs/Header header
float32 steering
float32 throttle",lar_msgs/CarControlStamped,"# std_msgs/Header
builtin_interfaces/Time stamp
string frame_id",std_msgs/Header,,"# builtin_interfaces/Time
int32 sec
uint32 nanosec",builtin_interfaces/Time,954764037,1727950648,-0.021106872707605362,0.08888889104127884
1727950649033396177,"# lar_msgs/CarControlStamped
std_msgs/Header header
float32 steering
float32 throttle",lar_msgs/CarControlStamped,"# std_msgs/Header
builtin_interfaces/Time stamp
string frame_id",std_msgs/Header,,"# builtin_interfaces/Time
int32 sec
uint32 nanosec",builtin_interfaces/Time,33275556,1727950649,0.0,0.1111111119389534
1727950649103445218,"# lar_msgs/CarControlStamped
std_msgs/Header header
float32 steering
float32 throttle",lar_msgs/CarControlStamped,"# std_msgs/Header
builtin_interfaces/Time stamp
string frame_id",std_msgs/Header,,"# builtin_interfaces/Time
int32 sec
uint32 nanosec",builtin_interfaces/Time,103243812,1727950649,0.0,0.1111111119389534
1727950649174450043,"# lar_msgs/CarControlStamped
std_msgs/Header header
float32 steering
float32 throttle",lar_msgs/CarControlStamped,"# std_msgs/Header
builtin_interfaces/Time stamp
string frame_id",std_msgs/Header,,"# builtin_interfaces/Time
int32 sec
uint32 nanosec",builtin_interfaces/Time,174273675,1727950649,0.0,0.1111111119389534
1727950649246442633,"# lar_msgs/CarControlStamped
std_msgs/Header header
float32 steering
float32 throttle",lar_msgs/CarControlStamped,"# std_msgs/Header
builtin_interfaces/Time stamp
string frame_id",std_msgs/Header,,"# builtin_interfaces/Time
int32 sec
uint32 nanosec",builtin_interfaces/Time,246260042,1727950649,0.0,0.1111111119389534
1727950649317322809,"# lar_msgs/CarControlStamped
std_msgs/Header header
float32 steering
float32 throttle",lar_msgs/CarControlStamped,"# std_msgs/Header
builtin_interfaces/Time stamp
string frame_id",std_msgs/Header,,"# builtin_interfaces/Time
int32 sec
uint32 nanosec",builtin_interfaces/Time,317207297,1727950649,0.0,0.08888889104127884
1727950649386926555,"# lar_msgs/CarControlStamped
std_msgs/Header header
float32 steering
float32 throttle",lar_msgs/CarControlStamped,"# std_msgs/Header
builtin_interfaces/Time stamp
string frame_id",std_msgs/Header,,"# builtin_interfaces/Time
int32 sec
uint32 nanosec",builtin_interfaces/Time,386797858,1727950649,0.0,0.08888889104127884
1727950649463976479,"# lar_msgs/CarControlStamped
std_msgs/Header header
float32 steering
float32 throttle",lar_msgs/CarControlStamped,"# std_msgs/Header
builtin_interfaces/Time stamp
string frame_id",std_msgs/Header,,"# builtin_interfaces/Time
int32 sec
uint32 nanosec",builtin_interfaces/Time,463803838,1727950649,0.0,0.08888889104127884
1727950649535526309,"# lar_msgs/CarControlStamped
std_msgs/Header header
float32 steering
float32 throttle",lar_msgs/CarControlStamped,"# std_msgs/Header
builtin_interfaces/Time stamp
string frame_id",std_msgs/Header,,"# builtin_interfaces/Time
int32 sec
uint32 nanosec",builtin_interfaces/Time,535422109,1727950649,0.0,0.06666667014360428
1727950649610870070,"# lar_msgs/CarControlStamped
std_msgs/Header header
float32 steering
float32 throttle",lar_msgs/CarControlStamped,"# std_msgs/Header
builtin_interfaces/Time stamp
string frame_id",std_msgs/Header,,"# builtin_interfaces/Time
int32 sec
uint32 nanosec",builtin_interfaces/Time,610750801,1727950649,0.0,0.06666667014360428
1727950649681290323,"# lar_msgs/CarControlStamped
std_msgs/Header header
float32 steering
float32 throttle",lar_msgs/CarControlStamped,"# std_msgs/Header
builtin_interfaces/Time stamp
string frame_id",std_msgs/Header,,"# builtin_interfaces/Time
int32 sec
uint32 nanosec",builtin_interfaces/Time,681133843,1727950649,0.0,0.06666667014360428
1727950649754806446,"# lar_msgs/CarControlStamped
std_msgs/Header header
float32 steering
float32 throttle",lar_msgs/CarControlStamped,"# std_msgs/Header
builtin_interfaces/Time stamp
string frame_id",std_msgs/Header,,"# builtin_interfaces/Time
int32 sec
uint32 nanosec",builtin_interfaces/Time,754647642,1727950649,0.0,0.06666667014360428
1727950649828388937,"# lar_msgs/CarControlStamped
std_msgs/Header header
float32 steering
float32 throttle",lar_msgs/CarControlStamped,"# std_msgs/Header
builtin_interfaces/Time stamp
string frame_id",std_msgs/Header,,"# builtin_interfaces/Time
int32 sec
uint32 nanosec",builtin_interfaces/Time,828200736,1727950649,0.0,0.06666667014360428
1727950649901607229,"# lar_msgs/CarControlStamped
std_msgs/Header header
float32 steering
float32 throttle",lar_msgs/CarControlStamped,"# std_msgs/Header
builtin_interfaces/Time stamp
string frame_id",std_msgs/Header,,"# builtin_interfaces/Time
int32 sec
uint32 nanosec",builtin_interfaces/Time,901358081,1727950649,-0.12468519061803818,0.06666667014360428
1727950649974482553,"# lar_msgs/CarControlStamped
std_msgs/Header header
float32 steering
float32 throttle",lar_msgs/CarControlStamped,"# std_msgs/Header
builtin_interfaces/Time stamp
string frame_id",std_msgs/Header,,"# builtin_interfaces/Time
int32 sec
uint32 nanosec",builtin_interfaces/Time,974334539,1727950649,-0.12468519061803818,0.06666667014360428
1727950650049934090,"# lar_msgs/CarControlStamped
std_msgs/Header header
float32 steering
float32 throttle",lar_msgs/CarControlStamped,"# std_msgs/Header
builtin_interfaces/Time stamp
string frame_id",std_msgs/Header,,"# builtin_interfaces/Time
int32 sec
uint32 nanosec",builtin_interfaces/Time,49829058,1727950650,-0.15951955318450928,0.06666667014360428
1727950650122359640,"# lar_msgs/CarControlStamped
std_msgs/Header header
float32 steering
float32 throttle",lar_msgs/CarControlStamped,"# std_msgs/Header
builtin_interfaces/Time stamp
string frame_id",std_msgs/Header,,"# builtin_interfaces/Time
int32 sec
uint32 nanosec",builtin_interfaces/Time,122249228,1727950650,-0.0862141028046608,0.06666667014360428
1727950650195571810,"# lar_msgs/CarControlStamped
std_msgs/Header header
float32 steering
float32 throttle",lar_msgs/CarControlStamped,"# std_msgs/Header
builtin_interfaces/Time stamp
string frame_id",std_msgs/Header,,"# builtin_interfaces/Time
int32 sec
uint32 nanosec",builtin_interfaces/Time,195409949,1727950650,-0.0862141028046608,0.06666667014360428
1727950650269299950,"# lar_msgs/CarControlStamped
std_msgs/Header header
float32 steering
float32 throttle",lar_msgs/CarControlStamped,"# std_msgs/Header
builtin_interfaces/Time stamp
string frame_id",std_msgs/Header,,"# builtin_interfaces/Time
int32 sec
uint32 nanosec",builtin_interfaces/Time,269192865,1727950650,-0.0862141028046608,0.08888889104127884
1727950650341972053,"# lar_msgs/CarControlStamped
std_msgs/Header header
float32 steering
float32 throttle",lar_msgs/CarControlStamped,"# std_msgs/Header
builtin_interfaces/Time stamp
string frame_id",std_msgs/Header,,"# builtin_interfaces/Time
int32 sec
uint32 nanosec",builtin_interfaces/Time,341856822,1727950650,0.0,0.08888889104127884
1727950650419609024,"# lar_msgs/CarControlStamped
std_msgs/Header header
float32 steering
float32 throttle",lar_msgs/CarControlStamped,"# std_msgs/Header
builtin_interfaces/Time stamp
string frame_id",std_msgs/Header,,"# builtin_interfaces/Time
int32 sec
uint32 nanosec",builtin_interfaces/Time,419446983,1727950650,0.021106872707605362,0.06666667014360428
1727950650497202501,"# lar_msgs/CarControlStamped
std_msgs/Header header
float32 steering
float32 throttle",lar_msgs/CarControlStamped,"# std_msgs/Header
builtin_interfaces/Time stamp
string frame_id",std_msgs/Header,,"# builtin_interfaces/Time
int32 sec
uint32 nanosec",builtin_interfaces/Time,497099062,1727950650,0.021106872707605362,0.06666667014360428
1727950650573817550,"# lar_msgs/CarControlStamped
std_msgs/Header header
float32 steering
float32 throttle",lar_msgs/CarControlStamped,"# std_msgs/Header
builtin_interfaces/Time stamp
string frame_id",std_msgs/Header,,"# builtin_interfaces/Time
int32 sec
uint32 nanosec",builtin_interfaces/Time,573654677,1727950650,0.0,0.08888889104127884
1727950650651781598,"# lar_msgs/CarControlStamped
std_msgs/Header header
float32 steering
float32 throttle",lar_msgs/CarControlStamped,"# std_msgs/Header
builtin_interfaces/Time stamp
string frame_id",std_msgs/Header,,"# builtin_interfaces/Time
int32 sec
uint32 nanosec",builtin_interfaces/Time,651671256,1727950650,0.0,0.06666667014360428
1727950650731955696,"# lar_msgs/CarControlStamped
std_msgs/Header header
float32 steering
float32 throttle",lar_msgs/CarControlStamped,"# std_msgs/Header
builtin_interfaces/Time stamp
string frame_id",std_msgs/Header,,"# builtin_interfaces/Time
int32 sec
uint32 nanosec",builtin_interfaces/Time,731837460,1727950650,0.0,0.06666667014360428
1727950650812459468,"# lar_msgs/CarControlStamped
std_msgs/Header header
float32 steering
float32 throttle",lar_msgs/CarControlStamped,"# std_msgs/Header
builtin_interfaces/Time stamp
string frame_id",std_msgs/Header,,"# builtin_interfaces/Time
int32 sec
uint32 nanosec",builtin_interfaces/Time,812308879,1727950650,-0.021106872707605362,0.08888889104127884
1727950650885768964,"# lar_msgs/CarControlStamped
std_msgs/Header header
float32 steering
float32 throttle",lar_msgs/CarControlStamped,"# std_msgs/Header
builtin_interfaces/Time stamp
string frame_id",std_msgs/Header,,"# builtin_interfaces/Time
int32 sec
uint32 nanosec",builtin_interfaces/Time,885612874,1727950650,0.0,0.06666667014360428
1727950650958619260,"# lar_msgs/CarControlStamped
std_msgs/Header header
float32 steering
float32 throttle",lar_msgs/CarControlStamped,"# std_msgs/Header
builtin_interfaces/Time stamp
string frame_id",std_msgs/Header,,"# builtin_interfaces/Time
int32 sec
uint32 nanosec",builtin_interfaces/Time,958501013,1727950650,0.0,0.08888889104127884
1727950651032370834,"# lar_msgs/CarControlStamped
std_msgs/Header header
float32 steering
float32 throttle",lar_msgs/CarControlStamped,"# std_msgs/Header
builtin_interfaces/Time stamp
string frame_id",std_msgs/Header,,"# builtin_interfaces/Time
int32 sec
uint32 nanosec",builtin_interfaces/Time,32182924,1727950651,0.021106872707605362,0.08888889104127884
1727950651106206049,"# lar_msgs/CarControlStamped
std_msgs/Header header
float32 steering
float32 throttle",lar_msgs/CarControlStamped,"# std_msgs/Header
builtin_interfaces/Time stamp
string frame_id",std_msgs/Header,,"# builtin_interfaces/Time
int32 sec
uint32 nanosec",builtin_interfaces/Time,106084967,1727950651,0.021106872707605362,0.08888889104127884
1727950651183135512,"# lar_msgs/CarControlStamped
std_msgs/Header header
float32 steering
float32 throttle",lar_msgs/CarControlStamped,"# std_msgs/Header
builtin_interfaces/Time stamp
string frame_id",std_msgs/Header,,"# builtin_interfaces/Time
int32 sec
uint32 nanosec",builtin_interfaces/Time,183015722,1727950651,0.021106872707605362,0.08888889104127884
1727950651262495037,"# lar_msgs/CarControlStamped
std_msgs/Header header
float32 steering
float32 throttle",lar_msgs/CarControlStamped,"# std_msgs/Header
builtin_interfaces/Time stamp
string frame_id",std_msgs/Header,,"# builtin_interfaces/Time
int32 sec
uint32 nanosec",builtin_interfaces/Time,262321915,1727950651,0.0862141028046608,0.06666667014360428
1727950651345552157,"# lar_msgs/CarControlStamped
std_msgs/Header header
float32 steering
float32 throttle",lar_msgs/CarControlStamped,"# std_msgs/Header
builtin_interfaces/Time stamp
string frame_id",std_msgs/Header,,"# builtin_interfaces/Time
int32 sec
uint32 nanosec",builtin_interfaces/Time,345451794,1727950651,-0.021106872707605362,0.08888889104127884
1727950651423426873,"# lar_msgs/CarControlStamped
std_msgs/Header header
float32 steering
float32 throttle",lar_msgs/CarControlStamped,"# std_msgs/Header
builtin_interfaces/Time stamp
string frame_id",std_msgs/Header,,"# builtin_interfaces/Time
int32 sec
uint32 nanosec",builtin_interfaces/Time,423277416,1727950651,-0.021106872707605362,0.08888889104127884
1727950651499348041,"# lar_msgs/CarControlStamped
std_msgs/Header header
float32 steering
float32 throttle",lar_msgs/CarControlStamped,"# std_msgs/Header
builtin_interfaces/Time stamp
string frame_id",std_msgs/Header,,"# builtin_interfaces/Time
int32 sec
uint32 nanosec",builtin_interfaces/Time,499242388,1727950651,0.0862141028046608,0.08888889104127884
1727950651572885364,"# lar_msgs/CarControlStamped
std_msgs/Header header
float32 steering
float32 throttle",lar_msgs/CarControlStamped,"# std_msgs/Header
builtin_interfaces/Time stamp
string frame_id",std_msgs/Header,,"# builtin_interfaces/Time
int32 sec
uint32 nanosec",builtin_interfaces/Time,572753261,1727950651,0.8121727108955383,0.02222222276031971
1727950651646176926,"# lar_msgs/CarControlStamped
std_msgs/Header header
float32 steering
float32 throttle",lar_msgs/CarControlStamped,"# std_msgs/Header
builtin_interfaces/Time stamp
string frame_id",std_msgs/Header,,"# builtin_interfaces/Time
int32 sec
uint32 nanosec",builtin_interfaces/Time,646070362,1727950651,1.0,0.04444444552063942
1727950651719184734,"# lar_msgs/CarControlStamped
std_msgs/Header header
float32 steering
float32 throttle",lar_msgs/CarControlStamped,"# std_msgs/Header
builtin_interfaces/Time stamp
string frame_id",std_msgs/Header,,"# builtin_interfaces/Time
int32 sec
uint32 nanosec",builtin_interfaces/Time,719077478,1727950651,1.0,0.06666667014360428
1727950651794060756,"# lar_msgs/CarControlStamped
std_msgs/Header header
float32 steering
float32 throttle",lar_msgs/CarControlStamped,"# std_msgs/Header
builtin_interfaces/Time stamp
string frame_id",std_msgs/Header,,"# builtin_interfaces/Time
int32 sec
uint32 nanosec",builtin_interfaces/Time,793900999,1727950651,1.0,0.06666667014360428
1727950651863446884,"# lar_msgs/CarControlStamped
std_msgs/Header header
float32 steering
float32 throttle",lar_msgs/CarControlStamped,"# std_msgs/Header
builtin_interfaces/Time stamp
string frame_id",std_msgs/Header,,"# builtin_interfaces/Time
int32 sec
uint32 nanosec",builtin_interfaces/Time,863326313,1727950651,1.0,0.08888889104127884
1727950651933695257,"# lar_msgs/CarControlStamped
std_msgs/Header header
float32 steering
float32 throttle",lar_msgs/CarControlStamped,"# std_msgs/Header
builtin_interfaces/Time stamp
string frame_id",std_msgs/Header,,"# builtin_interfaces/Time
int32 sec
uint32 nanosec",builtin_interfaces/Time,933584374,1727950651,1.0,0.08888889104127884
1727950652001395179,"# lar_msgs/CarControlStamped
std_msgs/Header header
float32 steering
float32 throttle",lar_msgs/CarControlStamped,"# std_msgs/Header
builtin_interfaces/Time stamp
string frame_id",std_msgs/Header,,"# builtin_interfaces/Time
int32 sec
uint32 nanosec",builtin_interfaces/Time,1274488,1727950652,1.0,0.08888889104127884
1727950652069754567,"# lar_msgs/CarControlStamped
std_msgs/Header header
float32 steering
float32 throttle",lar_msgs/CarControlStamped,"# std_msgs/Header
builtin_interfaces/Time stamp
string frame_id",std_msgs/Header,,"# builtin_interfaces/Time
int32 sec
uint32 nanosec",builtin_interfaces/Time,69649596,1727950652,0.8724058866500854,0.08888889104127884
1727950652145528622,"# lar_msgs/CarControlStamped
std_msgs/Header header
float32 steering
float32 throttle",lar_msgs/CarControlStamped,"# std_msgs/Header
builtin_interfaces/Time stamp
string frame_id",std_msgs/Header,,"# builtin_interfaces/Time
int32 sec
uint32 nanosec",builtin_interfaces/Time,145415635,1727950652,0.8724058866500854,0.08888889104127884
1727950652219120620,"# lar_msgs/CarControlStamped
std_msgs/Header header
float32 steering
float32 throttle",lar_msgs/CarControlStamped,"# std_msgs/Header
builtin_interfaces/Time stamp
string frame_id",std_msgs/Header,,"# builtin_interfaces/Time
int32 sec
uint32 nanosec",builtin_interfaces/Time,218990240,1727950652,0.7310539484024048,0.08888889104127884
1727950652288208776,"# lar_msgs/CarControlStamped
std_msgs/Header header
float32 steering
float32 throttle",lar_msgs/CarControlStamped,"# std_msgs/Header
builtin_interfaces/Time stamp
string frame_id",std_msgs/Header,,"# builtin_interfaces/Time
int32 sec
uint32 nanosec",builtin_interfaces/Time,288072455,1727950652,0.5364843010902405,0.08888889104127884
1727950652359136001,"# lar_msgs/CarControlStamped
std_msgs/Header header
float32 steering
float32 throttle",lar_msgs/CarControlStamped,"# std_msgs/Header
builtin_interfaces/Time stamp
string frame_id",std_msgs/Header,,"# builtin_interfaces/Time
int32 sec
uint32 nanosec",builtin_interfaces/Time,359024217,1727950652,0.5364843010902405,0.08888889104127884
1727950652429922216,"# lar_msgs/CarControlStamped
std_msgs/Header header
float32 steering
float32 throttle",lar_msgs/CarControlStamped,"# std_msgs/Header
builtin_interfaces/Time stamp
string frame_id",std_msgs/Header,,"# builtin_interfaces/Time
int32 sec
uint32 nanosec",builtin_interfaces/Time,429764834,1727950652,0.7310539484024048,0.08888889104127884
1727950652501774866,"# lar_msgs/CarControlStamped
std_msgs/Header header
float32 steering
float32 throttle",lar_msgs/CarControlStamped,"# std_msgs/Header
builtin_interfaces/Time stamp
string frame_id",std_msgs/Header,,"# builtin_interfaces/Time
int32 sec
uint32 nanosec",builtin_interfaces/Time,501651560,1727950652,0.8724058866500854,0.08888889104127884
1727950652577196004,"# lar_msgs/CarControlStamped
std_msgs/Header header
float32 steering
float32 throttle",lar_msgs/CarControlStamped,"# std_msgs/Header
builtin_interfaces/Time stamp
string frame_id",std_msgs/Header,,"# builtin_interfaces/Time
int32 sec
uint32 nanosec",builtin_interfaces/Time,577077277,1727950652,0.8724058866500854,0.08888889104127884
1727950652650814663,"# lar_msgs/CarControlStamped
std_msgs/Header header
float32 steering
float32 throttle",lar_msgs/CarControlStamped,"# std_msgs/Header
builtin_interfaces/Time stamp
string frame_id",std_msgs/Header,,"# builtin_interfaces/Time
int32 sec
uint32 nanosec",builtin_interfaces/Time,650653204,1727950652,0.8724058866500854,0.08888889104127884
1727950652726764776,"# lar_msgs/CarControlStamped
std_msgs/Header header
float32 steering
float32 throttle",lar_msgs/CarControlStamped,"# std_msgs/Header
builtin_interfaces/Time stamp
string frame_id",std_msgs/Header,,"# builtin_interfaces/Time
int32 sec
uint32 nanosec",builtin_interfaces/Time,726591464,1727950652,1.0,0.08888889104127884
1727950652804579046,"# lar_msgs/CarControlStamped
std_msgs/Header header
float32 steering
float32 throttle",lar_msgs/CarControlStamped,"# std_msgs/Header
builtin_interfaces/Time stamp
string frame_id",std_msgs/Header,,"# builtin_interfaces/Time
int32 sec
uint32 nanosec",builtin_interfaces/Time,804480447,1727950652,1.0,0.08888889104127884
1727950652881740543,"# lar_msgs/CarControlStamped
std_msgs/Header header
float32 steering
float32 throttle",lar_msgs/CarControlStamped,"# std_msgs/Header
builtin_interfaces/Time stamp
string frame_id",std_msgs/Header,,"# builtin_interfaces/Time
int32 sec
uint32 nanosec",builtin_interfaces/Time,881568102,1727950652,1.0,0.08888889104127884
1727950652962996276,"# lar_msgs/CarControlStamped
std_msgs/Header header
float32 steering
float32 throttle",lar_msgs/CarControlStamped,"# std_msgs/Header
builtin_interfaces/Time stamp
string frame_id",std_msgs/Header,,"# builtin_interfaces/Time
int32 sec
uint32 nanosec",builtin_interfaces/Time,962868171,1727950652,0.8121727108955383,0.08888889104127884
1727950653043393642,"# lar_msgs/CarControlStamped
std_msgs/Header header
float32 steering
float32 throttle",lar_msgs/CarControlStamped,"# std_msgs/Header
builtin_interfaces/Time stamp
string frame_id",std_msgs/Header,,"# builtin_interfaces/Time
int32 sec
uint32 nanosec",builtin_interfaces/Time,43210581,1727950653,0.7310539484024048,0.08888889104127884
1727950653121503138,"# lar_msgs/CarControlStamped
std_msgs/Header header
float32 steering
float32 throttle",lar_msgs/CarControlStamped,"# std_msgs/Header
builtin_interfaces/Time stamp
string frame_id",std_msgs/Header,,"# builtin_interfaces/Time
int32 sec
uint32 nanosec",builtin_interfaces/Time,121383098,1727950653,0.5364843010902405,0.08888889104127884
1727950653192961482,"# lar_msgs/CarControlStamped
std_msgs/Header header
float32 steering
float32 throttle",lar_msgs/CarControlStamped,"# std_msgs/Header
builtin_interfaces/Time stamp
string frame_id",std_msgs/Header,,"# builtin_interfaces/Time
int32 sec
uint32 nanosec",builtin_interfaces/Time,192846121,1727950653,0.7310539484024048,0.08888889104127884
1727950653264934734,"# lar_msgs/CarControlStamped
std_msgs/Header header
float32 steering
float32 throttle",lar_msgs/CarControlStamped,"# std_msgs/Header
builtin_interfaces/Time stamp
string frame_id",std_msgs/Header,,"# builtin_interfaces/Time
int32 sec
uint32 nanosec",builtin_interfaces/Time,264774176,1727950653,0.5668846964836121,0.08888889104127884
1727950653338084403,"# lar_msgs/CarControlStamped
std_msgs/Header header
float32 steering
float32 throttle",lar_msgs/CarControlStamped,"# std_msgs/Header
builtin_interfaces/Time stamp
string frame_id",std_msgs/Header,,"# builtin_interfaces/Time
int32 sec
uint32 nanosec",builtin_interfaces/Time,337965214,1727950653,0.43270382285118103,0.08888889104127884
1727950653406727785,"# lar_msgs/CarControlStamped
std_msgs/Header header
float32 steering
float32 throttle",lar_msgs/CarControlStamped,"# std_msgs/Header
builtin_interfaces/Time stamp
string frame_id",std_msgs/Header,,"# builtin_interfaces/Time
int32 sec
uint32 nanosec",builtin_interfaces/Time,406618155,1727950653,0.26408588886260986,0.08888889104127884
1727950653475994965,"# lar_msgs/CarControlStamped
std_msgs/Header header
float32 steering
float32 throttle",lar_msgs/CarControlStamped,"# std_msgs/Header
builtin_interfaces/Time stamp
string frame_id",std_msgs/Header,,"# builtin_interfaces/Time
int32 sec
uint32 nanosec",builtin_interfaces/Time,475876628,1727950653,0.021106872707605362,0.08888889104127884
1727950653546710403,"# lar_msgs/CarControlStamped
std_msgs/Header header
float32 steering
float32 throttle",lar_msgs/CarControlStamped,"# std_msgs/Header
builtin_interfaces/Time stamp
string frame_id",std_msgs/Header,,"# builtin_interfaces/Time
int32 sec
uint32 nanosec",builtin_interfaces/Time,546599119,1727950653,-0.12468519061803818,0.08888889104127884
1727950653624016718,"# lar_msgs/CarControlStamped
std_msgs/Header header
float32 steering
float32 throttle",lar_msgs/CarControlStamped,"# std_msgs/Header
builtin_interfaces/Time stamp
string frame_id",std_msgs/Header,,"# builtin_interfaces/Time
int32 sec
uint32 nanosec",builtin_interfaces/Time,623848455,1727950653,-0.29140761494636536,0.08888889104127884
1727950653700996336,"# lar_msgs/CarControlStamped
std_msgs/Header header
float32 steering
float32 throttle",lar_msgs/CarControlStamped,"# std_msgs/Header
builtin_interfaces/Time stamp
string frame_id",std_msgs/Header,,"# builtin_interfaces/Time
int32 sec
uint32 nanosec",builtin_interfaces/Time,700824867,1727950653,-0.38060346245765686,0.08888889104127884
1727950653775322021,"# lar_msgs/CarControlStamped
std_msgs/Header header
float32 steering
float32 throttle",lar_msgs/CarControlStamped,"# std_msgs/Header
builtin_interfaces/Time stamp
string frame_id",std_msgs/Header,,"# builtin_interfaces/Time
int32 sec
uint32 nanosec",builtin_interfaces/Time,775206339,1727950653,-0.38060346245765686,0.08888889104127884
1727950653847161897,"# lar_msgs/CarControlStamped
std_msgs/Header header
float32 steering
float32 throttle",lar_msgs/CarControlStamped,"# std_msgs/Header
builtin_interfaces/Time stamp
string frame_id",std_msgs/Header,,"# builtin_interfaces/Time
int32 sec
uint32 nanosec",builtin_interfaces/Time,847046987,1727950653,-0.38060346245765686,0.08888889104127884
1727950653919902962,"# lar_msgs/CarControlStamped
std_msgs/Header header
float32 steering
float32 throttle",lar_msgs/CarControlStamped,"# std_msgs/Header
builtin_interfaces/Time stamp
string frame_id",std_msgs/Header,,"# builtin_interfaces/Time
int32 sec
uint32 nanosec",builtin_interfaces/Time,919774887,1727950653,-0.38060346245765686,0.08888889104127884
1727950653991102349,"# lar_msgs/CarControlStamped
std_msgs/Header header
float32 steering
float32 throttle",lar_msgs/CarControlStamped,"# std_msgs/Header
builtin_interfaces/Time stamp
string frame_id",std_msgs/Header,,"# builtin_interfaces/Time
int32 sec
uint32 nanosec",builtin_interfaces/Time,990981136,1727950653,-0.3058781921863556,0.08888889104127884
1727950654059734179,"# lar_msgs/CarControlStamped
std_msgs/Header header
float32 steering
float32 throttle",lar_msgs/CarControlStamped,"# std_msgs/Header
builtin_interfaces/Time stamp
string frame_id",std_msgs/Header,,"# builtin_interfaces/Time
int32 sec
uint32 nanosec",builtin_interfaces/Time,59625280,1727950654,-0.3058781921863556,0.08888889104127884
1727950654130733722,"# lar_msgs/CarControlStamped
std_msgs/Header header
float32 steering
float32 throttle",lar_msgs/CarControlStamped,"# std_msgs/Header
builtin_interfaces/Time stamp
string frame_id",std_msgs/Header,,"# builtin_interfaces/Time
int32 sec
uint32 nanosec",builtin_interfaces/Time,130564908,1727950654,-0.3058781921863556,0.08888889104127884
1727950654204467993,"# lar_msgs/CarControlStamped
std_msgs/Header header
float32 steering
float32 throttle",lar_msgs/CarControlStamped,"# std_msgs/Header
builtin_interfaces/Time stamp
string frame_id",std_msgs/Header,,"# builtin_interfaces/Time
int32 sec
uint32 nanosec",builtin_interfaces/Time,204368432,1727950654,-0.3058781921863556,0.08888889104127884
1727950654277225329,"# lar_msgs/CarControlStamped
std_msgs/Header header
float32 steering
float32 throttle",lar_msgs/CarControlStamped,"# std_msgs/Header
builtin_interfaces/Time stamp
string frame_id",std_msgs/Header,,"# builtin_interfaces/Time
int32 sec
uint32 nanosec",builtin_interfaces/Time,277105408,1727950654,-0.3058781921863556,0.08888889104127884
1727950654351403962,"# lar_msgs/CarControlStamped
std_msgs/Header header
float32 steering
float32 throttle",lar_msgs/CarControlStamped,"# std_msgs/Header
builtin_interfaces/Time stamp
string frame_id",std_msgs/Header,,"# builtin_interfaces/Time
int32 sec
uint32 nanosec",builtin_interfaces/Time,351287679,1727950654,-0.38060346245765686,0.08888889104127884
1727950654426917196,"# lar_msgs/CarControlStamped
std_msgs/Header header
float32 steering
float32 throttle",lar_msgs/CarControlStamped,"# std_msgs/Header
builtin_interfaces/Time stamp
string frame_id",std_msgs/Header,,"# builtin_interfaces/Time
int32 sec
uint32 nanosec",builtin_interfaces/Time,426761587,1727950654,-0.4389292001724243,0.08888889104127884
1727950654501996096,"# lar_msgs/CarControlStamped
std_msgs/Header header
float32 steering
float32 throttle",lar_msgs/CarControlStamped,"# std_msgs/Header
builtin_interfaces/Time stamp
string frame_id",std_msgs/Header,,"# builtin_interfaces/Time
int32 sec
uint32 nanosec",builtin_interfaces/Time,501868972,1727950654,-0.4389292001724243,0.08888889104127884
1727950654577887816,"# lar_msgs/CarControlStamped
std_msgs/Header header
float32 steering
float32 throttle",lar_msgs/CarControlStamped,"# std_msgs/Header
builtin_interfaces/Time stamp
string frame_id",std_msgs/Header,,"# builtin_interfaces/Time
int32 sec
uint32 nanosec",builtin_interfaces/Time,577714394,1727950654,-0.5364843010902405,0.08888889104127884
1727950654655492163,"# lar_msgs/CarControlStamped
std_msgs/Header header
float32 steering
float32 throttle",lar_msgs/CarControlStamped,"# std_msgs/Header
builtin_interfaces/Time stamp
string frame_id",std_msgs/Header,,"# builtin_interfaces/Time
int32 sec
uint32 nanosec",builtin_interfaces/Time,655376641,1727950654,-0.8121727108955383,0.08888889104127884
1727950654731681514,"# lar_msgs/CarControlStamped
std_msgs/Header header
float32 steering
float32 throttle",lar_msgs/CarControlStamped,"# std_msgs/Header
builtin_interfaces/Time stamp
string frame_id",std_msgs/Header,,"# builtin_interfaces/Time
int32 sec
uint32 nanosec",builtin_interfaces/Time,731554560,1727950654,-0.7310539484024048,0.08888889104127884
1727950654812165686,"# lar_msgs/CarControlStamped
std_msgs/Header header
float32 steering
float32 throttle",lar_msgs/CarControlStamped,"# std_msgs/Header
builtin_interfaces/Time stamp
string frame_id",std_msgs/Header,,"# builtin_interfaces/Time
int32 sec
uint32 nanosec",builtin_interfaces/Time,811999657,1727950654,-0.5668846964836121,0.08888889104127884
1727950654891824474,"# lar_msgs/CarControlStamped
std_msgs/Header header
float32 steering
float32 throttle",lar_msgs/CarControlStamped,"# std_msgs/Header
builtin_interfaces/Time stamp
string frame_id",std_msgs/Header,,"# builtin_interfaces/Time
int32 sec
uint32 nanosec",builtin_interfaces/Time,891705195,1727950654,-0.38060346245765686,0.08888889104127884
1727950654969508293,"# lar_msgs/CarControlStamped
std_msgs/Header header
float32 steering
float32 throttle",lar_msgs/CarControlStamped,"# std_msgs/Header
builtin_interfaces/Time stamp
string frame_id",std_msgs/Header,,"# builtin_interfaces/Time
int32 sec
uint32 nanosec",builtin_interfaces/Time,969413000,1727950654,-0.26408588886260986,0.08888889104127884
1727950655046811201,"# lar_msgs/CarControlStamped
std_msgs/Header header
float32 steering
float32 throttle",lar_msgs/CarControlStamped,"# std_msgs/Header
builtin_interfaces/Time stamp
string frame_id",std_msgs/Header,,"# builtin_interfaces/Time
int32 sec
uint32 nanosec",builtin_interfaces/Time,46696691,1727950655,-0.12468519061803818,0.08888889104127884
1727950655125367103,"# lar_msgs/CarControlStamped
std_msgs/Header header
float32 steering
float32 throttle",lar_msgs/CarControlStamped,"# std_msgs/Header
builtin_interfaces/Time stamp
string frame_id",std_msgs/Header,,"# builtin_interfaces/Time
int32 sec
uint32 nanosec",builtin_interfaces/Time,125203759,1727950655,-0.021106872707605362,0.08888889104127884
1727950655200068759,"# lar_msgs/CarControlStamped
std_msgs/Header header
float32 steering
float32 throttle",lar_msgs/CarControlStamped,"# std_msgs/Header
builtin_interfaces/Time stamp
string frame_id",std_msgs/Header,,"# builtin_interfaces/Time
int32 sec
uint32 nanosec",builtin_interfaces/Time,199960651,1727950655,0.021106872707605362,0.08888889104127884
1727950655273794243,"# lar_msgs/CarControlStamped
std_msgs/Header header
float32 steering
float32 throttle",lar_msgs/CarControlStamped,"# std_msgs/Header
builtin_interfaces/Time stamp
string frame_id",std_msgs/Header,,"# builtin_interfaces/Time
int32 sec
uint32 nanosec",builtin_interfaces/Time,273680164,1727950655,0.3058781921863556,0.06666667014360428
1727950655347299172,"# lar_msgs/CarControlStamped
std_msgs/Header header
float32 steering
float32 throttle",lar_msgs/CarControlStamped,"# std_msgs/Header
builtin_interfaces/Time stamp
string frame_id",std_msgs/Header,,"# builtin_interfaces/Time
int32 sec
uint32 nanosec",builtin_interfaces/Time,347136611,1727950655,0.43270382285118103,0.06666667014360428
1727950655428873115,"# lar_msgs/CarControlStamped
std_msgs/Header header
float32 steering
float32 throttle",lar_msgs/CarControlStamped,"# std_msgs/Header
builtin_interfaces/Time stamp
string frame_id",std_msgs/Header,,"# builtin_interfaces/Time
int32 sec
uint32 nanosec",builtin_interfaces/Time,428713589,1727950655,0.4389292001724243,0.06666667014360428
1727950655509356115,"# lar_msgs/CarControlStamped
std_msgs/Header header
float32 steering
float32 throttle",lar_msgs/CarControlStamped,"# std_msgs/Header
builtin_interfaces/Time stamp
string frame_id",std_msgs/Header,,"# builtin_interfaces/Time
int32 sec
uint32 nanosec",builtin_interfaces/Time,509247977,1727950655,0.5364843010902405,0.04444444552063942
1727950655606745053,"# lar_msgs/CarControlStamped
std_msgs/Header header
float32 steering
float32 throttle",lar_msgs/CarControlStamped,"# std_msgs/Header
builtin_interfaces/Time stamp
string frame_id",std_msgs/Header,,"# builtin_interfaces/Time
int32 sec
uint32 nanosec",builtin_interfaces/Time,606637016,1727950655,0.5364843010902405,0.04444444552063942
1727950655682093200,"# lar_msgs/CarControlStamped
std_msgs/Header header
float32 steering
float32 throttle",lar_msgs/CarControlStamped,"# std_msgs/Header
builtin_interfaces/Time stamp
string frame_id",std_msgs/Header,,"# builtin_interfaces/Time
int32 sec
uint32 nanosec",builtin_interfaces/Time,681925498,1727950655,0.4389292001724243,0.06666667014360428
1727950655758544624,"# lar_msgs/CarControlStamped
std_msgs/Header header
float32 steering
float32 throttle",lar_msgs/CarControlStamped,"# std_msgs/Header
builtin_interfaces/Time stamp
string frame_id",std_msgs/Header,,"# builtin_interfaces/Time
int32 sec
uint32 nanosec",builtin_interfaces/Time,758273734,1727950655,0.38060346245765686,0.04444444552063942
1727950655839489490,"# lar_msgs/CarControlStamped
std_msgs/Header header
float32 steering
float32 throttle",lar_msgs/CarControlStamped,"# std_msgs/Header
builtin_interfaces/Time stamp
string frame_id",std_msgs/Header,,"# builtin_interfaces/Time
int32 sec
uint32 nanosec",builtin_interfaces/Time,839380450,1727950655,0.3058781921863556,0.04444444552063942
1727950655916048941,"# lar_msgs/CarControlStamped
std_msgs/Header header
float32 steering
float32 throttle",lar_msgs/CarControlStamped,"# std_msgs/Header
builtin_interfaces/Time stamp
string frame_id",std_msgs/Header,,"# builtin_interfaces/Time
int32 sec
uint32 nanosec",builtin_interfaces/Time,915891438,1727950655,0.3058781921863556,8.881784197001252e-16
1727950655999042628,"# lar_msgs/CarControlStamped
std_msgs/Header header
float32 steering
float32 throttle",lar_msgs/CarControlStamped,"# std_msgs/Header
builtin_interfaces/Time stamp
string frame_id",std_msgs/Header,,"# builtin_interfaces/Time
int32 sec
uint32 nanosec",builtin_interfaces/Time,998933278,1727950655,0.3058781921863556,0.02222222276031971
1727950656077889127,"# lar_msgs/CarControlStamped
std_msgs/Header header
float32 steering
float32 throttle",lar_msgs/CarControlStamped,"# std_msgs/Header
builtin_interfaces/Time stamp
string frame_id",std_msgs/Header,,"# builtin_interfaces/Time
int32 sec
uint32 nanosec",builtin_interfaces/Time,77636011,1727950656,-1.0,0.08888889104127884
1727950656161552628,"# lar_msgs/CarControlStamped
std_msgs/Header header
float32 steering
float32 throttle",lar_msgs/CarControlStamped,"# std_msgs/Header
builtin_interfaces/Time stamp
string frame_id",std_msgs/Header,,"# builtin_interfaces/Time
int32 sec
uint32 nanosec",builtin_interfaces/Time,161359097,1727950656,-1.0,0.08888889104127884
1727950656245473835,"# lar_msgs/CarControlStamped
std_msgs/Header header
float32 steering
float32 throttle",lar_msgs/CarControlStamped,"# std_msgs/Header
builtin_interfaces/Time stamp
string frame_id",std_msgs/Header,,"# builtin_interfaces/Time
int32 sec
uint32 nanosec",builtin_interfaces/Time,245375977,1727950656,-1.0,0.08888889104127884
1727950656324074422,"# lar_msgs/CarControlStamped
std_msgs/Header header
float32 steering
float32 throttle",lar_msgs/CarControlStamped,"# std_msgs/Header
builtin_interfaces/Time stamp
string frame_id",std_msgs/Header,,"# builtin_interfaces/Time
int32 sec
uint32 nanosec",builtin_interfaces/Time,323944453,1727950656,-1.0,0.08888889104127884
1727950656400689880,"# lar_msgs/CarControlStamped
std_msgs/Header header
float32 steering
float32 throttle",lar_msgs/CarControlStamped,"# std_msgs/Header
builtin_interfaces/Time stamp
string frame_id",std_msgs/Header,,"# builtin_interfaces/Time
int32 sec
uint32 nanosec",builtin_interfaces/Time,400507370,1727950656,1.0,0.08888889104127884
1727950656476705017,"# lar_msgs/CarControlStamped
std_msgs/Header header
float32 steering
float32 throttle",lar_msgs/CarControlStamped,"# std_msgs/Header
builtin_interfaces/Time stamp
string frame_id",std_msgs/Header,,"# builtin_interfaces/Time
int32 sec
uint32 nanosec",builtin_interfaces/Time,476582742,1727950656,1.0,0.06666667014360428
1727950656548954538,"# lar_msgs/CarControlStamped
std_msgs/Header header
float32 steering
float32 throttle",lar_msgs/CarControlStamped,"# std_msgs/Header
builtin_interfaces/Time stamp
string frame_id",std_msgs/Header,,"# builtin_interfaces/Time
int32 sec
uint32 nanosec",builtin_interfaces/Time,548839768,1727950656,1.0,0.08888889104127884
1727950656619738426,"# lar_msgs/CarControlStamped
std_msgs/Header header
float32 steering
float32 throttle",lar_msgs/CarControlStamped,"# std_msgs/Header
